{
  "updatedAt": "2026-04-03T17:04:56.018Z",
  "ranking": [
    {
      "rank": 1,
      "name": "백만석",
      "menu": "멍게비빔밥",
      "score": 98,
      "trend": "steady",
      "tags": [
        "거제9미",
        "향토음식",
        "블루리본"
      ],
      "summary": "거제 멍게비빔밥의 원조격인 곳으로, 비리지 않고 향긋한 멍게와 담백한 지리탕의 조화가 일품입니다.",
      "link": "https://map.naver.com/p/entry/place/11626359",
      "lat": 34.887,
      "lng": 128.625
    },
    {
      "rank": 2,
      "name": "강성횟집",
      "menu": "살얼음 물회",
      "score": 96,
      "trend": "up",
      "tags": [
        "해녀직송",
        "물회맛집",
        "현지인추천"
      ],
      "summary": "해녀가 직접 잡은 신선한 해산물이 가득한 물회로 유명하며, 깊고 진한 육수 맛이 특징입니다.",
      "link": "https://map.naver.com/p/entry/place/12037149",
      "lat": 34.831,
      "lng": 128.682
    },
    {
      "rank": 3,
      "name": "거제도굴구이",
      "menu": "굴코스 요리",
      "score": 95,
      "trend": "up",
      "tags": [
        "제철음식",
        "가족외식",
        "가성비"
      ],
      "summary": "거제 9미 중 하나인 굴을 구이, 탕수, 죽 등 다양한 코스로 즐길 수 있는 겨울철 필수 방문지입니다.",
      "link": "https://map.naver.com/p/entry/place/12036733",
      "lat": 34.931,
      "lng": 128.563
    },
    {
      "rank": 4,
      "name": "외양포횟집",
      "menu": "생대구탕",
      "score": 94,
      "trend": "steady",
      "tags": [
        "해장추천",
        "시원한국물",
        "항구맛집"
      ],
      "summary": "거제 외포항의 특산물인 생대구를 사용해 맑고 시원하게 끓여낸 대구탕이 현지인들에게 인기입니다.",
      "link": "https://map.naver.com/p/entry/place/31201555",
      "lat": 34.937,
      "lng": 128.567
    },
    {
      "rank": 5,
      "name": "중앙식당",
      "menu": "복어탕 및 볼락구이",
      "score": 92,
      "trend": "up",
      "tags": [
        "백종원추천",
        "노포맛집",
        "가성비"
      ],
      "summary": "백종원의 3대천왕에 소개된 곳으로, 신선한 볼락구이와 정갈한 밑반찬이 나오는 거제식 백반의 정석입니다.",
      "link": "https://map.naver.com/p/entry/place/11608688",
      "lat": 34.877,
      "lng": 128.701
    }
  ]
}