{
  "updatedAt": "2026-04-01T23:54:13.270Z",
  "ranking": [
    {
      "rank": 1,
      "name": "백만석",
      "menu": "멍게비빔밥",
      "score": 98,
      "trend": "up",
      "tags": [
        "거제9미",
        "향토음식",
        "가족외식"
      ],
      "summary": "향긋한 멍게와 비법 소스의 조화가 일품인 거제 대표 멍게비빔밥 명가입니다.",
      "link": "https://map.naver.com/p/entry/place/11593922",
      "lat": 34.889,
      "lng": 128.621
    },
    {
      "rank": 2,
      "name": "강성횟집",
      "menu": "살아있는 해녀 물회",
      "score": 96,
      "trend": "up",
      "tags": [
        "신선한해산물",
        "경치좋은",
        "TV출연맛집"
      ],
      "summary": "해녀가 직접 채취한 신선한 해산물이 가득 담긴 시원하고 칼칼한 물회 맛집입니다.",
      "link": "https://map.naver.com/p/entry/place/12035882",
      "lat": 34.831,
      "lng": 128.681
    },
    {
      "rank": 3,
      "name": "외포중앙횟집",
      "menu": "생대구탕",
      "score": 95,
      "trend": "steady",
      "tags": [
        "현지인추천",
        "해장제격",
        "외포항맛집"
      ],
      "summary": "거제 겨울의 진미인 생대구를 활용해 깊고 시원한 국물 맛을 내는 대구 요리 전문점입니다.",
      "link": "https://map.naver.com/p/entry/place/15949574",
      "lat": 34.938,
      "lng": 128.711
    },
    {
      "rank": 4,
      "name": "거제굴마을",
      "menu": "굴요리 코스",
      "score": 93,
      "trend": "up",
      "tags": [
        "제철음식",
        "가성비좋은",
        "굴요리전문"
      ],
      "summary": "굴 구이부터 굴 죽까지 거제의 신선한 굴을 다양한 조리법으로 즐길 수 있는 곳입니다.",
      "link": "https://map.naver.com/p/entry/place/13554807",
      "lat": 34.845,
      "lng": 128.587
    },
    {
      "rank": 5,
      "name": "두리원",
      "menu": "거제 한우 구이",
      "score": 91,
      "trend": "steady",
      "tags": [
        "고급스러운",
        "회식장소",
        "거제한우"
      ],
      "summary": "엄격하게 선별된 최상급 거제 한우를 제공하여 현지인들의 기념일 장소로 사랑받는 곳입니다.",
      "link": "https://map.naver.com/p/entry/place/19873994",
      "lat": 34.908,
      "lng": 128.599
    }
  ]
}