{
  "updatedAt": "2026-04-02T17:43:36.404Z",
  "ranking": [
    {
      "rank": 1,
      "name": "백만석",
      "menu": "멍게비빔밥",
      "score": 98,
      "trend": "up",
      "tags": [
        "향토음식",
        "대통령맛집",
        "가족외식"
      ],
      "summary": "거제 9미 중 하나인 멍게비빔밥의 원조격인 곳으로, 비리지 않고 산뜻한 바다 향이 일품입니다.",
      "link": "https://map.naver.com/p/entry/place/11636259",
      "lat": 34.887,
      "lng": 128.625
    },
    {
      "rank": 2,
      "name": "거제보재기횟집",
      "menu": "보재기 해물물회",
      "score": 96,
      "trend": "up",
      "tags": [
        "경치좋은",
        "물회맛집",
        "웨이팅필수"
      ],
      "summary": "신선한 해산물이 가득한 물회를 쌈 싸 먹는 독특한 방식과 환상적인 오션뷰를 동시에 즐길 수 있습니다.",
      "link": "https://map.naver.com/p/entry/place/13511116",
      "lat": 34.856,
      "lng": 128.701
    },
    {
      "rank": 3,
      "name": "거제도굴구이",
      "menu": "굴코스 요리",
      "score": 95,
      "trend": "steady",
      "tags": [
        "겨울제철",
        "현지인맛집",
        "가성비"
      ],
      "summary": "거제 9미 중 굴 요리를 제대로 즐길 수 있는 곳으로, 굴구이부터 굴탕수육, 굴죽까지 코스로 푸짐하게 제공됩니다.",
      "link": "https://map.naver.com/p/entry/place/13303666",
      "lat": 34.85,
      "lng": 128.563
    },
    {
      "rank": 4,
      "name": "중앙식당",
      "menu": "생대구탕 & 두루치기",
      "score": 93,
      "trend": "up",
      "tags": [
        "백종원의3대천왕",
        "노포맛집",
        "현지인추천"
      ],
      "summary": "백종원도 인정한 옥포동의 노포로, 겨울철 시원한 생대구탕과 정갈한 밑반찬의 조화가 훌륭합니다.",
      "link": "https://map.naver.com/p/entry/place/12040183",
      "lat": 34.931,
      "lng": 128.705
    },
    {
      "rank": 5,
      "name": "양지암횟집",
      "menu": "도다리쑥국 & 볼락구이",
      "score": 92,
      "trend": "steady",
      "tags": [
        "제철음식",
        "능포항맛집",
        "전통맛집"
      ],
      "summary": "봄철 도다리쑥국과 고소한 볼락구이로 유명하며, 거제의 계절별 미각을 가장 잘 살리는 식당 중 하나입니다.",
      "link": "https://map.naver.com/p/entry/place/12040188",
      "lat": 34.896,
      "lng": 128.729
    }
  ]
}