{
  "updatedAt": "2026-03-30T23:54:19.096Z",
  "ranking": [
    {
      "rank": 1,
      "name": "거제보재기집",
      "menu": "보재기해물물회",
      "score": 98,
      "trend": "up",
      "tags": [
        "경치좋은",
        "물회맛집",
        "가족외식"
      ],
      "summary": "신선한 해산물을 쌈 싸 먹는 독특한 방식의 물회로 현지인과 관광객 모두에게 압도적 인기",
      "link": "https://map.naver.com/p/entry/place/12030276",
      "lat": 34.851,
      "lng": 128.694
    },
    {
      "rank": 2,
      "name": "백만석",
      "menu": "멍게비빔밥",
      "score": 95,
      "trend": "steady",
      "tags": [
        "거제9미",
        "전통맛집",
        "어르신취향"
      ],
      "summary": "향긋한 멍게와 담백한 생선국이 어우러진 거제 멍게비빔밥의 원조 격인 식당",
      "link": "https://map.naver.com/p/entry/place/11634568",
      "lat": 34.887,
      "lng": 128.618
    },
    {
      "rank": 3,
      "name": "거제도굴구이",
      "menu": "굴코스요리",
      "score": 94,
      "trend": "up",
      "tags": [
        "제철요리",
        "가성비",
        "현지인맛집"
      ],
      "summary": "거제 9미 중 하나인 굴을 찜, 구이, 탕수육 등 다양한 코스로 즐길 수 있는 가성비 맛집",
      "link": "https://map.naver.com/p/entry/place/12109252",
      "lat": 34.965,
      "lng": 128.567
    },
    {
      "rank": 4,
      "name": "양지암등대회식당",
      "menu": "생대구탕",
      "score": 92,
      "trend": "steady",
      "tags": [
        "해장하기좋은",
        "깊은국물",
        "외포항"
      ],
      "summary": "외포항에서 갓 잡은 생대구로 끓여내 시원하고 깊은 맛이 일품인 거제 대표 대구탕 전문점",
      "link": "https://map.naver.com/p/entry/place/15003554",
      "lat": 34.897,
      "lng": 128.724
    },
    {
      "rank": 5,
      "name": "강성횟집",
      "menu": "성게비빔밥 & 회",
      "score": 90,
      "trend": "up",
      "tags": [
        "해녀직송",
        "신선한해산물",
        "오션뷰"
      ],
      "summary": "해녀가 직접 채취한 신선한 해산물과 자연산 회를 맛볼 수 있어 현지인 신뢰가 높은 곳",
      "link": "https://map.naver.com/p/entry/place/13317765",
      "lat": 34.855,
      "lng": 128.692
    }
  ]
}