{
  "updatedAt": "2026-03-29T23:05:20.795Z",
  "ranking": [
    {
      "rank": 1,
      "name": "백만석",
      "menu": "멍게비빔밥",
      "score": 98,
      "trend": "steady",
      "tags": [
        "향토음식",
        "블루리본",
        "현지인맛집"
      ],
      "summary": "거제 9미 중 하나인 멍게비빔밥의 원조격으로, 특허받은 멍게 다짐의 깊은 풍미가 일품입니다.",
      "link": "https://map.naver.com/p/entry/place/11603569",
      "lat": 34.887,
      "lng": 128.627
    },
    {
      "rank": 2,
      "name": "양지식당",
      "menu": "생대구탕",
      "score": 96,
      "trend": "up",
      "tags": [
        "외포항",
        "해장제격",
        "대구맛집"
      ],
      "summary": "전국 대구 생산량의 대부분을 차지하는 외포항에서 갓 잡은 신선한 생대구탕의 진수를 맛볼 수 있습니다.",
      "link": "https://map.naver.com/p/entry/place/15033479",
      "lat": 34.938,
      "lng": 128.711
    },
    {
      "rank": 3,
      "name": "강성횟집",
      "menu": "살얼음 물회",
      "score": 95,
      "trend": "up",
      "tags": [
        "해녀직송",
        "지세포맛집",
        "가족외식"
      ],
      "summary": "해녀가 직접 채취한 신선한 해산물이 가득하며, 과일로 맛을 낸 시원한 물회 육수가 독보적입니다.",
      "link": "https://map.naver.com/p/entry/place/13106596",
      "lat": 34.832,
      "lng": 128.694
    },
    {
      "rank": 4,
      "name": "원조거제굴구이",
      "menu": "굴 코스요리",
      "score": 93,
      "trend": "up",
      "tags": [
        "겨울별미",
        "코스요리",
        "가성비좋은"
      ],
      "summary": "거제대교 인근에 위치하여 굴구이부터 굴튀김, 굴죽까지 다양한 굴 요리를 푸짐하게 즐길 수 있습니다.",
      "link": "https://map.naver.com/p/entry/place/12028639",
      "lat": 34.919,
      "lng": 128.563
    },
    {
      "rank": 5,
      "name": "중앙식당",
      "menu": "볼락구이 정식",
      "score": 91,
      "trend": "steady",
      "tags": [
        "백종원추천",
        "노포맛집",
        "집밥스타일"
      ],
      "summary": "백종원의 3대 천왕에 소개된 곳으로, 거제산 볼락구이와 정갈한 밑반찬이 어우러진 현지인 단골집입니다.",
      "link": "https://map.naver.com/p/entry/place/11835955",
      "lat": 34.894,
      "lng": 128.692
    }
  ]
}