{
  "updatedAt": "2026-03-29T16:05:20.762Z",
  "ranking": [
    {
      "rank": 1,
      "name": "백만석",
      "menu": "멍게비빔밥",
      "score": 98,
      "trend": "steady",
      "tags": [
        "현지인맛집",
        "멍게비빔밥원조",
        "TV출연"
      ],
      "summary": "거제 9미 중 하나인 멍게비빔밥의 대명사로, 향긋한 멍게와 담백한 지리탕의 조화가 일품인 곳입니다.",
      "link": "https://naver.me/xqfV9K1l",
      "lat": 34.887,
      "lng": 128.624
    },
    {
      "rank": 2,
      "name": "강성횟집",
      "menu": "물회 및 성게비빔밥",
      "score": 96,
      "trend": "up",
      "tags": [
        "해녀직송",
        "물회맛집",
        "지세포항"
      ],
      "summary": "해녀가 직접 잡은 싱싱한 해산물을 사용하여 거제 물회의 진수를 보여주는 지세포 대표 맛집입니다.",
      "link": "https://naver.me/5PS5m9Xv",
      "lat": 34.876,
      "lng": 128.705
    },
    {
      "rank": 3,
      "name": "외포식당",
      "menu": "생대구탕",
      "score": 95,
      "trend": "up",
      "tags": [
        "겨울별미",
        "대구탕거리",
        "시원한국물"
      ],
      "summary": "전국 대구 물동량의 대부분을 차지하는 외포항에서 갓 잡은 생대구로 끓여낸 깊고 시원한 맛의 대구탕입니다.",
      "link": "https://naver.me/x0aE9NqX",
      "lat": 34.943,
      "lng": 128.718
    },
    {
      "rank": 4,
      "name": "거제굴구이",
      "menu": "굴코스요리",
      "score": 94,
      "trend": "up",
      "tags": [
        "굴구이",
        "가성비최고",
        "겨울필수코스"
      ],
      "summary": "거제면의 신선한 굴을 화력 좋은 불판에 구워 먹는 굴구이부터 굴탕수육까지 굴의 모든 것을 즐길 수 있습니다.",
      "link": "https://naver.me/G1snWj6W",
      "lat": 34.832,
      "lng": 128.577
    },
    {
      "rank": 5,
      "name": "중앙식당",
      "menu": "도다리쑥국 및 정식",
      "score": 93,
      "trend": "steady",
      "tags": [
        "백종원의3대천왕",
        "로컬맛집",
        "가정식백반"
      ],
      "summary": "옥포항 인근에서 오랜 시간 사랑받은 노포로, 봄철 도다리쑥국과 푸짐한 백반 차림으로 현지인들이 줄 서는 곳입니다.",
      "link": "https://naver.me/FzHlPz8B",
      "lat": 34.891,
      "lng": 128.626
    }
  ]
}